1

ArduPlane V3.0.3 (f0615253)
Free RAM: 1306
APM 2
FMT, 128, 89, FMT, BBnNZ, Type,Length,Name,Format
FMT, 129, 23, PARM, Nf, Name,Value
FMT, 130, 45, GPS, BIHBcLLeeEefI, Status,TimeMS,Week,NSats,HDop,Lat,Lng,RelAlt,Alt,Spd,GCrs,VZ,T
FMT, 131, 31, IMU, Iffffff, TimeMS,GyrX,GyrY,GyrZ,AccX,AccY,AccZ
FMT, 135, 31, IMU2, Iffffff, TimeMS,GyrX,GyrY,GyrZ,AccX,AccY,AccZ
FMT, 132, 67, MSG, Z, Message
FMT, 133, 23, RCIN, Ihhhhhhhh, TimeMS,Chan1,Chan2,Chan3,Chan4,Chan5,Chan6,Chan7,Chan8
FMT, 134, 23, RCOU, Ihhhhhhhh, TimeMS,Chan1,Chan2,Chan3,Chan4,Chan5,Chan6,Chan7,Chan8
FMT, 136, 17, BARO, Iffc, TimeMS,Alt,Press,Temp
FMT, 10, 17, ATT, IccCCC, TimeMS,Roll,Pitch,Yaw,ErrorRP,ErrorYaw
FMT, 3, 24, PM, IHIBBhhhBH, LTime,MLC,gDt,RNCnt,RNBl,GDx,GDy,GDz,I2CErr,INSErr
FMT, 4, 20, CMD, BBBBBeLL, CTot,CNum,CId,COpt,Prm1,Alt,Lat,Lng
FMT, 9, 27, CAM, IHLLeccC, GPSTime,GPSWeek,Lat,Lng,Alt,Roll,Pitch,Yaw
FMT, 6, 5, STRT, BB, SType,CTot
FMT, 1, 23, CTUN, Icccchhf, TimeMS,NavRoll,Roll,NavPitch,Pitch,ThrOut,RdrOut,AccY
FMT, 2, 29, NTUN, ICICCccfI, TimeMS,Yaw,WpDist,TargBrg,NavBrg,AltErr,Arspd,Alt,GSpdCM
FMT, 15, 24, SONR, IffffB, TimeMS,DistCM,Volt,BaroAlt,GSpd,Thr
FMT, 11, 9, MODE, IMB, TimeMS,Mode,ModeNum
FMT, 5, 19, CURR, IhhhHf, TimeMS,Thr,Volt,Curr,Vcc,CurrTot
FMT, 12, 19, MAG, Ihhhhhh, TimeMS,MagX,MagY,MagZ,OfsX,OfsY,OfsZ
FMT, 16, 19, MAG2, Ihhhhhh, TimeMS,MagX,MagY,MagZ,OfsX,OfsY,OfsZ
FMT, 17, 10, ARM, IHB, TimeMS,ArmState,ArmChecks
FMT, 18, 17, ARSP, Iffc, TimeMS,Airspeed,DiffPress,Temp
FMT, 13, 55, TECS, Iffffffffffff, TimeMS,h,dh,h_dem,dh_dem,sp_dem,sp,dsp,ith,iph,th,ph,dsp_dem
MSG, ArduPlane V2.78b (f0615253)
MODE, 15586, Manual, 0
GPS, 0, 0, 0, 0, 0.00, 0.0000000, 0.0000000, 0.00, 0.00, 0.00, 0.00, 0.000000, 15588
GPS, 1, 0, 0, 0, 0.00, 0.0000000, 0.0000000, 0.00, 0.00, 0.00, 0.00, 0.000000, 15832
GPS, 0, 0, 0, 0, 0.00, 0.0000000, 0.0000000, 0.00, 0.00, 0.00, 0.00, 0.000000, 15927
GPS, 3, 437353000, 1799, 9, 1.66, 11.1665711, 122.4001889, 0.13, 378.24, 0.00, 29.18, 0.000000, 16031
GPS, 3, 437354000, 1799, 9, 1.66, 11.1665712, 122.4001892, 0.16, 378.24, 0.00, 29.18, 0.010000, 17012
GPS, 3, 437354200, 1799, 9, 1.66, 11.1665712, 122.4001895, 0.24, 378.29, 0.00, 29.18, -0.010000, 17212
GPS, 3, 437354400, 1799, 9, 1.66, 11.1665713, 122.4001899, 0.25, 378.32, 0.03, 29.18, -0.099999, 17413
GPS, 3, 437354600, 1799, 9, 1.66, 11.1665710, 122.4001902, 0.28, 378.32, 0.06, 29.18, 0.070000, 17613
MSG, init home
MSG, gps alt: 37829
GPS, 3, 437354800, 1799, 9, 1.66, 11.1665709, 122.4001905, 0.28, 378.29, 0.06, 29.18, 0.000000, 17828
GPS, 3, 437355000, 1799, 9, 1.66, 11.1665709, 122.4001905, 378.57, 378.31, 0.05, 29.18, -0.080000, 18023
GPS, 3, 437355200, 1799, 9, 1.66, 11.1665708, 122.4001907, 378.58, 378.31, 0.05, 29.18, -0.020000, 18224
GPS, 3, 437355400, 1799, 9, 1.66, 11.1665709, 122.4001909, 378.58, 378.30, 0.01, 29.18, 0.090000, 18410
GPS, 3, 437355600, 1799, 9, 1.66, 11.1665710, 122.4001909, 378.57, 378.30, 0.04, 29.18, 0.110000, 18610
GPS, 3, 437355800, 1799, 9, 1.66, 11.1665710, 122.4001909, 378.58, 378.34, 0.05, 29.18, -0.120000, 18810
GPS, 3, 437356000, 1799, 9, 1.66, 11.1665709, 122.4001908, 378.54, 378.37, 0.05, 29.18, 0.060000, 19010
GPS, 3, 437356200, 1799, 9, 1.66, 11.1665707, 122.4001906, 378.47, 378.37, 0.05, 29.18, 0.050000, 19211
GPS, 3, 437356400, 1799, 9, 1.66, 11.1665705, 122.4001904, 378.48, 378.33, 0.04, 29.18, -0.070000, 19411
GPS, 3, 437356600, 1799, 9, 1.66, 11.1665703, 122.4001902, 378.45, 378.28, 0.03, 29.18, -0.030000, 19611
GPS, 3, 437356800, 1799, 9, 1.66, 11.1665701, 122.4001900, 378.45, 378.25, 0.02, 29.18, -0.110000, 19812
GPS, 3, 437357000, 1799, 9, 1.66, 11.1665698, 122.4001899, 378.39, 378.24, 0.11, 29.18, -0.140000, 20012
GPS, 3, 437357200, 1799, 9, 1.66, 11.1665695, 122.4001897, 378.39, 378.21, 0.01, 29.18, 0.070000, 20212
GPS, 3, 437357400, 1799, 9, 1.66, 11.1665693, 122.4001896, 378.45, 378.17, 0.01, 29.18, 0.140000, 20413
GPS, 3, 437357600, 1799, 9, 1.66, 11.1665691, 122.4001895, 378.60, 378.09, 0.05, 29.18, 0.170000, 20613
GPS, 3, 437357800, 1799, 9, 1.66, 11.1665690, 122.4001894, 378.73, 378.03, 0.03, 29.18, -0.090000, 20813
GPS, 3, 437358000, 1799, 9, 1.66, 11.1665689, 122.4001892, 378.78, 378.02, 0.02, 29.18, -0.110000, 21013
GPS, 3, 437358200, 1799, 9, 1.66, 11.1665687, 122.4001889, 378.81, 377.99, 0.08, 29.18, -0.080000, 21214
GPS, 3, 437358400, 1799, 9, 1.66, 11.1665685, 122.4001887, 378.88, 377.94, 0.08, 29.18, 0.060000, 21414
GPS, 3, 437358600, 1799, 9, 1.66, 11.1665683, 122.4001885, 378.91, 377.91, 0.08, 29.18, -0.200000, 21614
GPS, 3, 437358800, 1799, 9, 1.66, 11.1665681, 122.4001882, 378.93, 377.90, 0.01, 29.18, -0.030000, 21814
GPS, 3, 437359000, 1799, 9, 1.66, 11.1665679, 122.4001880, 378.93, 377.87, 0.05, 29.18, -0.080000, 22015
GPS, 3, 437359200, 1799, 9, 1.66, 11.1665677, 122.4001877, 379.01, 377.84, 0.07, 29.18, -0.070000, 22215
GPS, 3, 437359400, 1799, 9, 1.66, 11.1665676, 122.4001874, 379.02, 377.80, 0.03, 29.18, 0.030000, 22415
GPS, 3, 437359600, 1799, 9, 1.66, 11.1665675, 122.4001872, 378.98, 377.75, 0.06, 29.18, 0.060000, 22616
GPS, 3, 437359800, 1799, 9, 1.66, 11.1665674, 122.4001871, 379.01, 377.72, 0.05, 29.18, -0.070000, 22816
GPS, 3, 437360000, 1799, 9, 1.66, 11.1665673, 122.4001869, 379.07, 377.71, 0.04, 29.18, -0.030000, 23016
GPS, 3, 437360200, 1799, 9, 1.66, 11.1665672, 122.4001867, 379.10, 377.70, 0.01, 29.18, 0.040000, 23216
GPS, 3, 437360400, 1799, 9, 1.66, 11.1665671, 122.4001865, 379.10, 377.66, 0.01, 29.18, 0.120000, 23416
GPS, 3, 437360600, 1799, 9, 1.66, 11.1665670, 122.4001864, 379.13, 377.62, 0.03, 29.18, 0.050000, 23617
GPS, 3, 437360800, 1799, 9, 1.66, 11.1665669, 122.4001863, 379.17, 377.59, 0.02, 29.18, -0.040000, 23818
GPS, 3, 437361000, 1799, 9, 1.66, 11.1665669, 122.4001862, 379.15, 377.57, 0.03, 29.18, -0.030000, 24018
GPS, 3, 437361200, 1799, 9, 1.66, 11.1665668, 122.4001861, 379.22, 377.53, 0.03, 29.18, 0.060000, 24218
GPS, 3, 437361400, 1799, 9, 1.66, 11.1665667, 122.4001861, 379.21, 377.48, 0.03, 29.18, 0.160000, 24418
GPS, 3, 437361600, 1799, 9, 1.66, 11.1665666, 122.4001859, 379.22, 377.45, 0.04, 29.18, -0.080000, 24619
GPS, 3, 437361800, 1799, 9, 1.66, 11.1665666, 122.4001859, 379.24, 377.40, 0.02, 29.18, 0.030000, 24819
GPS, 3, 437362000, 1799, 9, 1.66, 11.1665666, 122.4001858, 379.23, 377.38, 0.10, 29.18, -0.110000, 25020
GPS, 3, 437362200, 1799, 9, 1.66, 11.1665666, 122.4001858, 379.22, 377.36, 0.08, 29.18, -0.030000, 25220
GPS, 3, 437362400, 1799, 9, 1.66, 11.1665665, 122.4001857, 379.24, 377.33, 0.05, 29.18, 0.050000, 25420
GPS, 3, 437362600, 1799, 9, 1.66, 11.1665664, 122.4001856, 379.26, 377.30, 0.07, 29.18, 0.040000, 25621
GPS, 3, 437362800, 1799, 9, 1.66, 11.1665663, 122.4001856, 379.24, 377.27, 0.11, 29.18, 0.030000, 25820
GPS, 3, 437363000, 1799, 9, 1.66, 11.1665661, 122.4001858, 379.27, 377.24, 0.06, 29.18, -0.010000, 26021
GPS, 3, 437363200, 1799, 9, 1.66, 11.1665661, 122.4001859, 379.30, 377.20, 0.05, 29.18, 0.010000, 26221
GPS, 3, 437363400, 1799, 9, 1.66, 11.1665661, 122.4001859, 379.30, 377.17, 0.03, 29.18, -0.040000, 26421
GPS, 3, 437363600, 1799, 9, 1.66, 11.1665660, 122.4001860, 379.26, 377.14, 0.08, 29.18, 0.020000, 26622
GPS, 3, 437363800, 1799, 9, 1.66, 11.1665659, 122.4001861, 379.29, 377.12, 0.05, 29.18, -0.090000, 26822
GPS, 3, 437364000, 1799, 9, 1.66, 11.1665660, 122.4001862, 379.28, 377.09, 0.09, 29.18, -0.110000, 27022
GPS, 3, 437364200, 1799, 9, 1.66, 11.1665661, 122.4001863, 379.32, 377.07, 0.05, 29.18, -0.060000, 27223
GPS, 3, 437364400, 1799, 9, 1.66, 11.1665659, 122.4001863, 379.29, 377.07, 0.07, 29.18, -0.170000, 27423
GPS, 3, 437364600, 1799, 9, 1.66, 11.1665659, 122.4001863, 379.40, 377.05, 0.07, 29.18, 0.050000, 27623
GPS, 3, 437364800, 1799, 9, 1.66, 11.1665660, 122.4001863, 379.42, 377.01, 0.06, 29.18, 0.020000, 27823
GPS, 3, 437365000, 1799, 9, 1.66, 11.1665660, 122.4001863, 379.39, 376.98, 0.05, 29.18, -0.099999, 28024
GPS, 3, 437365200, 1799, 9, 1.66, 11.1665661, 122.4001864, 379.40, 376.94, 0.05, 29.18, 0.099999, 28224
GPS, 3, 437365400, 1799, 9, 1.66, 11.1665661, 122.4001864, 379.44, 376.89, 0.07, 29.18, 0.000000, 28424
GPS, 3, 437365600, 1799, 9, 1.66, 11.1665661, 122.4001864, 379.47, 376.87, 0.06, 29.18, -0.190000, 28624
GPS, 3, 437365800, 1799, 9, 1.66, 11.1665661, 122.4001864, 379.45, 376.85, 0.06, 29.18, 0.000000, 28825
GPS, 3, 437366000, 1799, 9, 1.66, 11.1665661, 122.4001864, 379.44, 376.81, 0.02, 29.18, -0.010000, 29025
GPS, 3, 437366200, 1799, 9, 1.66, 11.1665661, 122.4001864, 379.43, 376.80, 0.05, 29.18, -0.200000, 29226
GPS, 3, 437366400, 1799, 9, 1.66, 11.1665661, 122.4001863, 379.46, 376.78, 0.02, 29.18, 0.080000, 29425
GPS, 3, 437366600, 1799, 9, 1.66, 11.1665661, 122.4001863, 379.48, 376.77, 0.01, 29.18, -0.160000, 29626
GPS, 3, 437366800, 1799, 9, 1.66, 11.1665662, 122.4001863, 379.55, 376.76, 0.07, 29.18, 0.110000, 29826
GPS, 3, 437367000, 1799, 9, 1.66, 11.1665662, 122.4001862, 379.62, 376.76, 0.02, 29.18, -0.180000, 30026
GPS, 3, 437367200, 1799, 9, 1.66, 11.1665661, 122.4001861, 379.71, 376.75, 0.07, 29.18, -0.060000, 30226
GPS, 3, 437367400, 1799, 9, 1.66, 11.1665661, 122.4001860, 379.77, 376.75, 0.01, 29.18, -0.110000, 30427
GPS, 3, 437367600, 1799, 9, 1.66, 11.1665661, 122.4001859, 379.84, 376.73, 0.02, 29.18, -0.030000, 30627
GPS, 3, 437367800, 1799, 9, 1.66, 11.1665661, 122.4001859, 379.91, 376.71, 0.03, 29.18, -0.020000, 30827
GPS, 3, 437368000, 1799, 9, 1.66, 11.1665661, 122.4001858, 379.95, 376.68, 0.04, 29.18, 0.130000, 31028
GPS, 3, 437368200, 1799, 9, 1.66, 11.1665661, 122.4001857, 380.00, 376.64, 0.07, 29.18, 0.030000, 31228
GPS, 3, 437368400, 1799, 9, 1.66, 11.1665661, 122.4001856, 379.93, 376.62, 0.04, 29.18, -0.099999, 31429
GPS, 3, 437368600, 1799, 9, 1.66, 11.1665660, 122.4001856, 379.95, 376.62, 0.04, 29.18, -0.099999, 31629
GPS, 3, 437368800, 1799, 9, 1.66, 11.1665660, 122.4001855, 379.95, 376.60, 0.06, 29.18, 0.130000, 31829
GPS, 3, 437369000, 1799, 9, 1.66, 11.1665661, 122.4001854, 379.93, 376.56, 0.05, 29.18, 0.060000, 32029
GPS, 3, 437369200, 1799, 9, 1.66, 11.1665661, 122.4001852, 379.91, 376.54, 0.04, 29.18, -0.010000, 32230
GPS, 3, 437369400, 1799, 9, 1.66, 11.1665661, 122.4001851, 379.96, 376.54, 0.02, 29.18, -0.099999, 32430
GPS, 3, 437369600, 1799, 9, 1.66, 11.1665660, 122.4001850, 379.95, 376.55, 0.04, 29.18, -0.110000, 32630
GPS, 3, 437369800, 1799, 9, 1.66, 11.1665661, 122.4001850, 379.96, 376.54, 0.07, 29.18, 0.060000, 32831
GPS, 3, 437370000, 1799, 9, 1.66, 11.1665661, 122.4001849, 379.96, 376.53, 0.05, 29.18, -0.160000, 33031
GPS, 3, 437370200, 1799, 9, 1.66, 11.1665662, 122.4001849, 379.97, 376.56, 0.03, 29.18, -0.130000, 33231
GPS, 3, 437370400, 1799, 9, 1.66, 11.1665662, 122.4001848, 379.92, 376.55, 0.01, 29.18, 0.060000, 33431
GPS, 3, 437370600, 1799, 9, 1.66, 11.1665663, 122.4001848, 379.85, 376.53, 0.11, 29.18, 0.070000, 33632
GPS, 3, 437370800, 1799, 9, 1.66, 11.1665664, 122.4001848, 379.84, 376.52, 0.06, 29.18, -0.050000, 33832
GPS, 3, 437371000, 1799, 9, 1.66, 11.1665665, 122.4001848, 379.07, 376.50, 0.02, 29.18, 0.140000, 34032
GPS, 3, 437371200, 1799, 9, 1.66, 11.1665665, 122.4001848, 378.16, 376.48, 0.09, 29.18, -0.030000, 34232
GPS, 3, 437371400, 1799, 9, 1.66, 11.1665665, 122.4001849, 378.71, 376.47, 0.06, 29.18, 0.030000, 34433
GPS, 3, 437371600, 1799, 9, 1.66, 11.1665666, 122.4001850, 379.07, 376.46, 0.06, 29.18, -0.180000, 34633
GPS, 3, 437371800, 1799, 9, 1.66, 11.1665666, 122.4001850, 379.31, 376.46, 0.06, 29.18, -0.010000, 34833
GPS, 3, 437372000, 1799, 9, 1.66, 11.1665666, 122.4001850, 379.45, 376.46, 0.03, 29.18, -0.110000, 35034
GPS, 3, 437372200, 1799, 9, 1.66, 11.1665668, 122.4001850, 379.34, 376.44, 0.05, 29.18, 0.020000, 35234
GPS, 3, 437372400, 1799, 10, 1.57, 11.1665669, 122.4001849, 378.34, 376.42, 0.05, 29.18, 0.000000, 35434
GPS, 3, 437372600, 1799, 10, 1.57, 11.1665668, 122.4001849, 376.73, 376.40, 0.10, 29.18, -0.060000, 35635
GPS, 3, 437372800, 1799, 10, 1.57, 11.1665668, 122.4001850, 375.92, 376.41, 0.12, 29.18, -0.140000, 35835
GPS, 3, 437373000, 1799, 9, 1.66, 11.1665669, 122.4001851, 375.47, 376.39, 0.01, 29.18, 0.020000, 36035
GPS, 3, 437373200, 1799, 9, 1.66, 11.1665670, 122.4001851, 375.22, 376.37, 0.13, 29.18, 0.110000, 36235
GPS, 3, 437373400, 1799, 9, 1.66, 11.1665672, 122.4001852, 374.96, 376.32, 0.04, 29.18, 0.110000, 36436
GPS, 3, 437373600, 1799, 9, 1.66, 11.1665673, 122.4001852, 374.74, 376.28, 0.04, 29.18, 0.050000, 36636
GPS, 3, 437373800, 1799, 10, 1.57, 11.1665673, 122.4001852, 374.52, 376.25, 0.05, 29.18, -0.030000, 36836
GPS, 3, 437374000, 1799, 10, 1.57, 11.1665673, 122.4001853, 374.34, 376.24, 0.11, 29.18, -0.030000, 37037
GPS, 3, 437374200, 1799, 10, 1.57, 11.1665673, 122.4001854, 374.27, 376.21, 0.06, 29.18, 0.090000, 37237
GPS, 3, 437374400, 1799, 10, 1.57, 11.1665673, 122.4001855, 374.26, 376.21, 0.07, 29.18, -0.190000, 37437
GPS, 3, 437374600, 1799, 10, 1.57, 11.1665674, 122.4001856, 374.27, 376.20, 0.07, 29.18, 0.070000, 37637
GPS, 3, 437374800, 1799, 10, 1.57, 11.1665675, 122.4001856, 374.32, 376.18, 0.02, 29.18, -0.040000, 37838
GPS, 3, 437375000, 1799, 10, 1.57, 11.1665675, 122.4001856, 374.39, 376.19, 0.02, 29.18, -0.099999, 38038
GPS, 3, 437375200, 1799, 10, 1.57, 11.1665675, 122.4001855, 374.40, 376.18, 0.09, 29.18, -0.080000, 38238
GPS, 3, 437375400, 1799, 10, 1.57, 11.1665674, 122.4001854, 374.46, 376.17, 0.08, 29.18, -0.080000, 38439
GPS, 3, 437375600, 1799, 10, 1.57, 11.1665673, 122.4001853, 374.47, 376.14, 0.07, 29.18, -0.060000, 38639
GPS, 3, 437375800, 1799, 10, 1.57, 11.1665672, 122.4001853, 374.40, 376.12, 0.03, 29.18, -0.010000, 38840
GPS, 3, 437376000, 1799, 10, 1.57, 11.1665672, 122.4001853, 374.39, 376.11, 0.02, 29.18, -0.120000, 39040
GPS, 3, 437376200, 1799, 10, 1.57, 11.1665672, 122.4001852, 374.30, 376.09, 0.04, 29.18, 0.010000, 39240
GPS, 3, 437376400, 1799, 10, 1.57, 11.1665671, 122.4001851, 374.22, 376.07, 0.07, 29.18, -0.070000, 39440
GPS, 3, 437376600, 1799, 10, 1.57, 11.1665670, 122.4001851, 374.21, 376.03, 0.05, 29.18, 0.110000, 39641
GPS, 3, 437376800, 1799, 10, 1.57, 11.1665670, 122.4001851, 374.18, 375.98, 0.03, 29.18, 0.090000, 39841
GPS, 3, 437377000, 1799, 10, 1.57, 11.1665670, 122.4001851, 374.18, 375.94, 0.07, 29.18, 0.050000, 40041
GPS, 3, 437377200, 1799, 10, 1.57, 11.1665670, 122.4001850, 374.21, 375.92, 0.05, 29.18, 0.000000, 40242
GPS, 3, 437377400, 1799, 10, 1.57, 11.1665670, 122.4001849, 374.25, 375.91, 0.05, 29.18, 0.040000, 40442
GPS, 3, 437377600, 1799, 10, 1.57, 11.1665670, 122.4001848, 374.28, 375.89, 0.08, 29.18, -0.010000, 40642
GPS, 3, 437377800, 1799, 10, 1.57, 11.1665670, 122.4001848, 374.31, 375.87, 0.05, 29.18, 0.080000, 40842
GPS, 3, 437378000, 1799, 10, 1.57, 11.1665670, 122.4001846, 374.25, 375.85, 0.06, 29.18, -0.070000, 41043
GPS, 3, 437378200, 1799, 10, 1.57, 11.1665668, 122.4001845, 374.27, 375.84, 0.07, 29.18, 0.000000, 41243
GPS, 3, 437378400, 1799, 10, 1.57, 11.1665667, 122.4001845, 374.29, 375.82, 0.07, 29.18, -0.040000, 41443
GPS, 3, 437378600, 1799, 10, 1.57, 11.1665664, 122.4001845, 374.31, 375.80, 0.06, 29.18, 0.030000, 41644
GPS, 3, 437378800, 1799, 10, 1.57, 11.1665663, 122.4001846, 374.33, 375.78, 0.03, 29.18, 0.130000, 41844
GPS, 3, 437379000, 1799, 10, 1.57, 11.1665661, 122.4001846, 374.35, 375.75, 0.06, 29.18, 0.000000, 42044
GPS, 3, 437379200, 1799, 10, 1.57, 11.1665660, 122.4001847, 374.36, 375.74, 0.01, 29.18, 0.050000, 42245
GPS, 3, 437379400, 1799, 10, 1.57, 11.1665659, 122.4001846, 374.35, 375.72, 0.06, 29.18, 0.020000, 42445
GPS, 3, 437379600, 1799, 10, 1.57, 11.1665659, 122.4001846, 374.40, 375.69, 0.04, 29.18, 0.080000, 42645
GPS, 3, 437379800, 1799, 10, 1.57, 11.1665658, 122.4001846, 374.34, 375.67, 0.10, 29.18, -0.060000, 42846
GPS, 3, 437380000, 1799, 10, 1.57, 11.1665657, 122.4001846, 374.38, 375.65, 0.06, 29.18, 0.010000, 43046
GPS, 3, 437380200, 1799, 10, 1.57, 11.1665656, 122.4001845, 374.38, 375.65, 0.07, 29.18, -0.240000, 43246
GPS, 3, 437380400, 1799, 10, 1.57, 11.1665655, 122.4001844, 374.43, 375.66, 0.04, 29.18, -0.070000, 43446
GPS, 3, 437380600, 1799, 10, 1.57, 11.1665654, 122.4001843, 374.44, 375.65, 0.05, 29.18, 0.030000, 43647
GPS, 3, 437380800, 1799, 10, 1.57, 11.1665653, 122.4001843, 374.47, 375.62, 0.04, 29.18, 0.090000, 43847
GPS, 3, 437381000, 1799, 10, 1.57, 11.1665652, 122.4001842, 374.48, 375.60, 0.07, 29.18, -0.150000, 44047
GPS, 3, 437381200, 1799, 10, 1.57, 11.1665651, 122.4001842, 374.46, 375.58, 0.07, 29.18, 0.040000, 44247
GPS, 3, 437381400, 1799, 10, 1.57, 11.1665649, 122.4001842, 374.48, 375.55, 0.11, 29.18, -0.040000, 44448
GPS, 3, 437381600, 1799, 10, 1.57, 11.1665647, 122.4001842, 374.49, 375.53, 0.08, 29.18, 0.010000, 44648
GPS, 3, 437381800, 1799, 10, 1.57, 11.1665647, 122.4001843, 374.44, 375.51, 0.01, 29.18, -0.020000, 44848
GPS, 3, 437382000, 1799, 10, 1.57, 11.1665647, 122.4001843, 374.43, 375.47, 0.08, 29.18, 0.080000, 45049
GPS, 3, 437382200, 1799, 10, 1.57, 11.1665647, 122.4001843, 374.33, 375.43, 0.04, 29.18, 0.030000, 45249
GPS, 3, 437382400, 1799, 10, 1.57, 11.1665647, 122.4001842, 374.25, 375.40, 0.05, 29.18, -0.030000, 45449
GPS, 3, 437382600, 1799, 10, 1.57, 11.1665647, 122.4001841, 374.18, 375.37, 0.04, 29.18, 0.090000, 45649
GPS, 3, 437382800, 1799, 10, 1.57, 11.1665647, 122.4001840, 374.16, 375.33, 0.04, 29.18, 0.050000, 45850
GPS, 3, 437383000, 1799, 10, 1.57, 11.1665646, 122.4001840, 374.16, 375.30, 0.02, 29.18, 0.080000, 46050
GPS, 3, 437383200, 1799, 10, 1.57, 11.1665646, 122.4001839, 374.18, 375.24, 0.02, 29.18, 0.160000, 46250
GPS, 3, 437383400, 1799, 10, 1.57, 11.1665646, 122.4001839, 374.18, 375.21, 0.02, 29.18, -0.140000, 46451
GPS, 3, 437383600, 1799, 10, 1.57, 11.1665646, 122.4001839, 374.13, 375.19, 0.04, 29.18, 0.140000, 46651
GPS, 3, 437383800, 1799, 10, 1.57, 11.1665645, 122.4001838, 374.06, 375.15, 0.09, 29.18, -0.030000, 46851
GPS, 3, 437384000, 1799, 10, 1.57, 11.1665645, 122.4001837, 374.04, 375.12, 0.06, 29.18, 0.040000, 47051
GPS, 3, 437384200, 1799, 10, 1.57, 11.1665644, 122.4001837, 374.05, 375.10, 0.05, 29.18, -0.099999, 47251
GPS, 3, 437384400, 1799, 10, 1.57, 11.1665645, 122.4001837, 374.04, 375.08, 0.04, 29.18, 0.090000, 47452
GPS, 3, 437384600, 1799, 10, 1.57, 11.1665645, 122.4001836, 374.07, 375.04, 0.04, 29.18, -0.020000, 47652
GPS, 3, 437384800, 1799, 10, 1.57, 11.1665645, 122.4001836, 374.06, 375.02, 0.01, 29.18, -0.060000, 47852
GPS, 3, 437385000, 1799, 10, 1.57, 11.1665645, 122.4001836, 374.04, 375.01, 0.02, 29.18, -0.090000, 48053
GPS, 3, 437385200, 1799, 10, 1.57, 11.1665644, 122.4001836, 374.07, 375.00, 0.04, 29.18, -0.060000, 48253
GPS, 3, 437385400, 1799, 10, 1.57, 11.1665644, 122.4001836, 374.09, 374.98, 0.04, 29.18, 0.010000, 48453
GPS, 3, 437385600, 1799, 10, 1.57, 11.1665644, 122.4001836, 374.00, 374.97, 0.10, 29.18, 0.000000, 48654
GPS, 3, 437385800, 1799, 10, 1.57, 11.1665643, 122.4001834, 374.01, 374.96, 0.05, 29.18, -0.050000, 48854
GPS, 3, 437386000, 1799, 10, 1.57, 11.1665642, 122.4001834, 374.13, 374.93, 0.07, 29.18, 0.000000, 49054
GPS, 3, 437386200, 1799, 10, 1.57, 11.1665641, 122.4001833, 374.22, 374.91, 0.07, 29.18, -0.040000, 49254
GPS, 3, 437386400, 1799, 10, 1.57, 11.1665641, 122.4001832, 374.32, 374.88, 0.05, 29.18, 0.040000, 49455
GPS, 3, 437386600, 1799, 10, 1.57, 11.1665641, 122.4001832, 374.40, 374.84, 0.01, 29.18, 0.030000, 49655
GPS, 3, 437386800, 1799, 10, 1.57, 11.1665640, 122.4001831, 374.40, 374.84, 0.06, 29.18, -0.030000, 49855
GPS, 3, 437387000, 1799, 10, 1.57, 11.1665639, 122.4001831, 374.45, 374.85, 0.03, 29.18, -0.120000, 50055
GPS, 3, 437387200, 1799, 10, 1.57, 11.1665639, 122.4001831, 374.52, 374.84, 0.08, 29.18, 0.080000, 50256
GPS, 3, 437387400, 1799, 10, 1.57, 11.1665639, 122.4001832, 374.56, 374.80, 0.05, 29.18, 0.110000, 50456
GPS, 3, 437387600, 1799, 10, 1.57, 11.1665639, 122.4001832, 374.57, 374.81, 0.06, 29.18, -0.040000, 50656
GPS, 3, 437387800, 1799, 10, 1.57, 11.1665639, 122.4001832, 374.55, 374.80, 0.06, 29.18, -0.020000, 50857
GPS, 3, 437388000, 1799, 10, 1.57, 11.1665639, 122.4001832, 374.57, 374.79, 0.05, 29.18, 0.000000, 51057
GPS, 3, 437388200, 1799, 10, 1.57, 11.1665640, 122.4001831, 374.60, 374.76, 0.08, 29.18, -0.060000, 51257
GPS, 3, 437388400, 1799, 10, 1.57, 11.1665640, 122.4001831, 374.63, 374.73, 0.01, 29.18, 0.010000, 51457
GPS, 3, 437388600, 1799, 10, 1.57, 11.1665640, 122.4001830, 374.63, 374.66, 0.01, 29.18, 0.170000, 51658
GPS, 3, 437388800, 1799, 10, 1.57, 11.1665640, 122.4001830, 374.65, 374.62, 0.02, 29.18, 0.040000, 51858
GPS, 3, 437389000, 1799, 10, 1.57, 11.1665640, 122.4001829, 374.71, 374.59, 0.04, 29.18, -0.110000, 52058
GPS, 3, 437389200, 1799, 10, 1.57, 11.1665641, 122.4001828, 374.68, 374.60, 0.02, 29.18, -0.330000, 52258
GPS, 3, 437389400, 1799, 10, 1.57, 11.1665640, 122.4001826, 374.70, 374.60, 0.09, 29.18, -0.080000, 52459
GPS, 3, 437389600, 1799, 10, 1.57, 11.1665639, 122.4001825, 374.70, 374.59, 0.04, 29.18, -0.110000, 52660
GPS, 3, 437389800, 1799, 10, 1.57, 11.1665639, 122.4001823, 374.68, 374.57, 0.04, 29.18, -0.050000, 52860
GPS, 3, 437390000, 1799, 10, 1.57, 11.1665639, 122.4001823, 374.69, 374.57, 0.02, 29.18, -0.070000, 53060
GPS, 3, 437390200, 1799, 10, 1.57, 11.1665639, 122.4001822, 374.68, 374.56, 0.03, 29.18, -0.080000, 53260
GPS, 3, 437390400, 1799, 10, 1.57, 11.1665638, 122.4001822, 374.69, 374.57, 0.09, 29.18, -0.130000, 53461
GPS, 3, 437390600, 1799, 10, 1.57, 11.1665638, 122.4001823, 374.69, 374.56, 0.04, 29.18, -0.020000, 53661
GPS, 3, 437390800, 1799, 10, 1.57, 11.1665638, 122.4001821, 374.73, 374.55, 0.11, 29.18, -0.110000, 53861
GPS, 3, 437391000, 1799, 10, 1.57, 11.1665637, 122.4001820, 374.73, 374.55, 0.06, 29.18, -0.280000, 54062
GPS, 3, 437391200, 1799, 10, 1.57, 11.1665636, 122.4001819, 374.81, 374.57, 0.05, 29.18, -0.250000, 54262
GPS, 3, 437391400, 1799, 10, 1.57, 11.1665637, 122.4001820, 374.99, 374.55, 0.06, 29.18, -0.070000, 54462
GPS, 3, 437391600, 1799, 10, 1.57, 11.1665638, 122.4001821, 375.39, 374.56, 0.07, 29.18, -0.290000, 54662
GPS, 3, 437391800, 1799, 10, 1.57, 11.1665638, 122.4001821, 376.03, 374.57, 0.02, 29.18, -0.230000, 54863
GPS, 3, 437392000, 1799, 10, 1.57, 11.1665639, 122.4001822, 377.06, 374.55, 0.05, 29.18, -0.060000, 55063
GPS, 3, 437392200, 1799, 10, 1.57, 11.1665638, 122.4001821, 377.97, 374.55, 0.09, 29.18, -0.190000, 55263
GPS, 3, 437392400, 1799, 10, 1.57, 11.1665638, 122.4001821, 378.46, 374.55, 0.03, 29.18, -0.120000, 55464
GPS, 3, 437392600, 1799, 10, 1.57, 11.1665639, 122.4001822, 378.79, 374.57, 0.02, 29.18, -0.150000, 55664
GPS, 3, 437392800, 1799, 10, 1.57, 11.1665639, 122.4001822, 379.09, 374.57, 0.03, 29.18, -0.099999, 55864
GPS, 3, 437393000, 1799, 10, 1.57, 11.1665638, 122.4001822, 379.32, 374.58, 0.06, 29.18, 0.000000, 56065
GPS, 3, 437393200, 1799, 10, 1.57, 11.1665638, 122.4001822, 379.43, 374.57, 0.05, 29.18, -0.010000, 56265
GPS, 3, 437393400, 1799, 10, 1.57, 11.1665637, 122.4001822, 379.49, 374.57, 0.03, 29.18, -0.110000, 56465
GPS, 3, 437393600, 1799, 10, 1.57, 11.1665637, 122.4001822, 379.57, 374.60, 0.05, 29.18, -0.220000, 56666
GPS, 3, 437393800, 1799, 10, 1.57, 11.1665637, 122.4001821, 379.58, 374.62, 0.06, 29.18, 0.000000, 56866
GPS, 3, 437394000, 1799, 10, 1.57, 11.1665637, 122.4001822, 379.57, 374.61, 0.06, 29.18, 0.130000, 57066
GPS, 3, 437394200, 1799, 10, 1.57, 11.1665637, 122.4001821, 379.59, 374.63, 0.07, 29.18, -0.210000, 57266
GPS, 3, 437394400, 1799, 10, 1.57, 11.1665636, 122.4001821, 379.61, 374.65, 0.12, 29.18, -0.050000, 57467
GPS, 3, 437394600, 1799, 10, 1.57, 11.1665635, 122.4001821, 379.60, 374.66, 0.02, 29.18, -0.110000, 57667
GPS, 3, 437394800, 1799, 10, 1.57, 11.1665634, 122.4001822, 379.59, 374.66, 0.05, 29.18, -0.040000, 57867
GPS, 3, 437395000, 1799, 10, 1.57, 11.1665633, 122.4001823, 379.61, 374.68, 0.05, 29.18, -0.080000, 58067
GPS, 3, 437395200, 1799, 10, 1.57, 11.1665633, 122.4001823, 379.67, 374.68, 0.04, 29.18, -0.050000, 58268
GPS, 3, 437395400, 1799, 10, 1.57, 11.1665633, 122.4001823, 379.64, 374.68, 0.07, 29.18, 0.030000, 58468
GPS, 3, 437395600, 1799, 10, 1.57, 11.1665632, 122.4001823, 379.71, 374.70, 0.05, 29.18, -0.200000, 58668
GPS, 3, 437395800, 1799, 10, 1.57, 11.1665631, 122.4001823, 379.69, 374.72, 0.07, 29.18, -0.070000, 58868
GPS, 3, 437396000, 1799, 10, 1.57, 11.1665630, 122.4001822, 379.65, 374.75, 0.07, 29.18, -0.220000, 59069
GPS, 3, 437396200, 1799, 10, 1.57, 11.1665629, 122.4001822, 379.70, 374.75, 0.06, 29.18, 0.050000, 59289
GPS, 3, 437396400, 1799, 10, 1.57, 11.1665628, 122.4001821, 379.62, 374.74, 0.08, 29.18, -0.020000, 59469
GPS, 3, 437396600, 1799, 10, 1.57, 11.1665626, 122.4001820, 379.33, 374.73, 0.05, 29.18, 0.000000, 59670
GPS, 3, 437396800, 1799, 10, 1.57, 11.1665625, 122.4001820, 377.91, 374.71, 0.05, 29.18, 0.030000, 59870
GPS, 3, 437397000, 1799, 10, 1.57, 11.1665625, 122.4001820, 377.70, 374.70, 0.02, 29.18, -0.070000, 60070
GPS, 3, 437397200, 1799, 10, 1.57, 11.1665625, 122.4001820, 377.95, 374.70, 0.01, 29.18, -0.030000, 60270
GPS, 3, 437397400, 1799, 10, 1.57, 11.1665624, 122.4001821, 377.31, 374.69, 0.06, 29.18, -0.010000, 60471
GPS, 3, 437397600, 1799, 10, 1.57, 11.1665623, 122.4001821, 376.86, 374.69, 0.06, 29.18, -0.080000, 60671
GPS, 3, 437397800, 1799, 10, 1.57, 11.1665622, 122.4001822, 376.91, 374.71, 0.04, 29.18, -0.130000, 60871
GPS, 3, 437398000, 1799, 10, 1.57, 11.1665622, 122.4001823, 377.05, 374.72, 0.06, 29.18, 0.010000, 61072
GPS, 3, 437398200, 1799, 10, 1.57, 11.1665622, 122.4001824, 376.83, 374.71, 0.04, 29.18, 0.060000, 61272
GPS, 3, 437398400, 1799, 10, 1.57, 11.1665621, 122.4001824, 376.57, 374.70, 0.05, 29.18, 0.050000, 61472
GPS, 3, 437398600, 1799, 10, 1.57, 11.1665621, 122.4001826, 376.37, 374.70, 0.08, 29.18, 0.000000, 61672
GPS, 3, 437398800, 1799, 10, 1.57, 11.1665622, 122.4001827, 376.21, 374.70, 0.03, 29.18, 0.010000, 61873
GPS, 3, 437399000, 1799, 10, 1.57, 11.1665622, 122.4001827, 376.19, 374.68, 0.05, 29.18, 0.120000, 62073
GPS, 3, 437399200, 1799, 10, 1.57, 11.1665623, 122.4001828, 376.11, 374.67, 0.04, 29.18, 0.020000, 62273
GPS, 3, 437399400, 1799, 10, 1.57, 11.1665624, 122.4001829, 376.19, 374.68, 0.05, 29.18, -0.050000, 62473
GPS, 3, 437399600, 1799, 10, 1.57, 11.1665625, 122.4001830, 376.52, 374.69, 0.07, 29.18, -0.030000, 62674
GPS, 3, 437399800, 1799, 10, 1.57, 11.1665626, 122.4001830, 377.72, 374.72, 0.03, 29.18, -0.200000, 62874
GPS, 3, 437400000, 1799, 10, 1.57, 11.1665626, 122.4001831, 378.75, 374.73, 0.01, 29.18, -0.020000, 63075
GPS, 3, 437400200, 1799, 10, 1.57, 11.1665627, 122.4001831, 379.31, 374.73, 0.04, 29.18, -0.040000, 63274
GPS, 3, 437400400, 1799, 10, 1.57, 11.1665627, 122.4001832, 379.55, 374.73, 0.05, 29.18, -0.030000, 63475
GPS, 3, 437400600, 1799, 10, 1.57, 11.1665627, 122.4001833, 379.61, 374.74, 0.03, 29.18, -0.160000, 63675
GPS, 3, 437400800, 1799, 10, 1.57, 11.1665627, 122.4001834, 378.96, 374.72, 0.05, 29.18, 0.099999, 63876
GPS, 3, 437401000, 1799, 10, 1.57, 11.1665626, 122.4001835, 379.10, 374.70, 0.08, 29.18, -0.070000, 64076
GPS, 3, 437401200, 1799, 10, 1.57, 11.1665626, 122.4001834, 379.33, 374.71, 0.10, 29.18, -0.150000, 64276
GPS, 3, 437401400, 1799, 10, 1.57, 11.1665625, 122.4001833, 379.38, 374.72, 0.03, 29.18, -0.060000, 64476
GPS, 3, 437401600, 1799, 10, 1.57, 11.1665625, 122.4001834, 379.32, 374.73, 0.08, 29.18, -0.210000, 64677
GPS, 3, 437401800, 1799, 10, 1.57, 11.1665625, 122.4001835, 379.33, 374.74, 0.02, 29.18, -0.060000, 64877
GPS, 3, 437402000, 1799, 10, 1.57, 11.1665624, 122.4001835, 379.31, 374.75, 0.02, 29.18, -0.080000, 65077
GPS, 3, 437402200, 1799, 10, 1.57, 11.1665624, 122.4001836, 379.25, 374.74, 0.03, 29.18, 0.099999, 65278
GPS, 3, 437402400, 1799, 10, 1.57, 11.1665624, 122.4001836, 379.28, 374.74, 0.06, 29.18, -0.080000, 65478
GPS, 3, 437402600, 1799, 10, 1.57, 11.1665624, 122.4001836, 379.22, 374.75, 0.10, 29.18, -0.040000, 65678
GPS, 3, 437402800, 1799, 10, 1.57, 11.1665624, 122.4001837, 379.24, 374.76, 0.04, 29.18, -0.110000, 65878
GPS, 3, 437403000, 1799, 10, 1.57, 11.1665624, 122.4001837, 379.26, 374.75, 0.05, 29.18, 0.070000, 66079
GPS, 3, 437403200, 1799, 10, 1.57, 11.1665624, 122.4001837, 379.23, 374.75, 0.07, 29.18, -0.020000, 66279
GPS, 3, 437403400, 1799, 10, 1.57, 11.1665623, 122.4001836, 379.24, 374.73, 0.02, 29.18, 0.090000, 66480
GPS, 3, 437403600, 1799, 10, 1.57, 11.1665623, 122.4001837, 379.23, 374.73, 0.05, 29.18, -0.090000, 66680
GPS, 3, 437403800, 1799, 10, 1.57, 11.1665623, 122.4001836, 379.24, 374.75, 0.09, 29.18, -0.170000, 66880
GPS, 3, 437404000, 1799, 10, 1.57, 11.1665622, 122.4001836, 379.30, 374.75, 0.09, 29.18, 0.130000, 67081
GPS, 3, 437404200, 1799, 10, 1.57, 11.1665621, 122.4001837, 379.37, 374.75, 0.06, 29.18, -0.120000, 67281
GPS, 3, 437404400, 1799, 10, 1.57, 11.1665621, 122.4001838, 379.45, 374.77, 0.07, 29.18, -0.070000, 67481
GPS, 3, 437404600, 1799, 10, 1.57, 11.1665621, 122.4001838, 379.52, 374.77, 0.03, 29.18, -0.060000, 67681
GPS, 3, 437404800, 1799, 10, 1.57, 11.1665621, 122.4001838, 379.56, 374.79, 0.04, 29.18, -0.130000, 67882
GPS, 3, 437405000, 1799, 10, 1.57, 11.1665621, 122.4001839, 379.59, 374.82, 0.09, 29.18, -0.099999, 68063
GPS, 3, 437405200, 1799, 10, 1.57, 11.1665621, 122.4001840, 379.52, 374.82, 0.03, 29.18, -0.060000, 68263
GPS, 3, 437405400, 1799, 10, 1.57, 11.1665620, 122.4001840, 379.51, 374.83, 0.06, 29.18, 0.070000, 68463
GPS, 3, 437405600, 1799, 10, 1.57, 11.1665620, 122.4001839, 379.45, 374.85, 0.09, 29.18, -0.170000, 68664
GPS, 3, 437405800, 1799, 10, 1.57, 11.1665619, 122.4001839, 379.42, 374.88, 0.07, 29.18, -0.120000, 68864
GPS, 3, 437406000, 1799, 10, 1.57, 11.1665619, 122.4001840, 379.36, 374.89, 0.02, 29.18, 0.020000, 69064
GPS, 3, 437406200, 1799, 10, 1.57, 11.1665619, 122.4001841, 379.37, 374.89, 0.07, 29.18, 0.000000, 69264
GPS, 3, 437406400, 1799, 10, 1.57, 11.1665618, 122.4001843, 379.36, 374.89, 0.05, 29.18, 0.090000, 69465
GPS, 3, 437406600, 1799, 10, 1.57, 11.1665618, 122.4001844, 379.25, 374.88, 0.07, 29.18, 0.000000, 69665
GPS, 3, 437406800, 1799, 10, 1.57, 11.1665618, 122.4001845, 379.23, 374.86, 0.03, 29.18, 0.200000, 69865
GPS, 3, 437407000, 1799, 10, 1.57, 11.1665619, 122.4001845, 379.15, 374.85, 0.11, 29.18, -0.030000, 70065
GPS, 3, 437407200, 1799, 10, 1.57, 11.1665621, 122.4001845, 379.08, 374.85, 0.06, 29.18, 0.050000, 70266
GPS, 3, 437407400, 1799, 10, 1.57, 11.1665620, 122.4001844, 379.03, 374.86, 0.10, 29.18, -0.060000, 70466
GPS, 3, 437407600, 1799, 10, 1.57, 11.1665619, 122.4001844, 378.89, 374.86, 0.09, 29.18, 0.050000, 70666
GPS, 3, 437407800, 1799, 10, 1.57, 11.1665618, 122.4001843, 378.69, 374.85, 0.06, 29.18, 0.060000, 70867
GPS, 3, 437408000, 1799, 10, 1.57, 11.1665618, 122.4001842, 377.62, 374.85, 0.02, 29.18, -0.010000, 71067
GPS, 3, 437408200, 1799, 10, 1.57, 11.1665619, 122.4001842, 376.96, 374.86, 0.05, 29.18, 0.030000, 71267
GPS, 3, 437408400, 1799, 10, 1.57, 11.1665620, 122.4001842, 376.66, 374.89, 0.02, 29.18, -0.080000, 71467
GPS, 3, 437408600, 1799, 10, 1.57, 11.1665620, 122.4001842, 376.62, 374.92, 0.02, 29.18, -0.090000, 71668
GPS, 3, 437408800, 1799, 10, 1.57, 11.1665620, 122.4001841, 376.67, 374.94, 0.05, 29.18, -0.040000, 71868
GPS, 3, 437409000, 1799, 10, 1.57, 11.1665621, 122.4001841, 376.85, 374.94, 0.10, 29.18, -0.060000, 72068
GPS, 3, 437409200, 1799, 10, 1.57, 11.1665621, 122.4001840, 377.15, 374.97, 0.09, 29.18, -0.030000, 72269
GPS, 3, 437409400, 1799, 10, 1.57, 11.1665620, 122.4001840, 377.46, 375.00, 0.04, 29.18, -0.110000, 72469
GPS, 3, 437409600, 1799, 10, 1.57, 11.1665620, 122.4001840, 377.68, 375.01, 0.03, 29.18, -0.040000, 72669
GPS, 3, 437409800, 1799, 10, 1.57, 11.1665619, 122.4001839, 377.81, 375.03, 0.17, 29.18, -0.090000, 72870
GPS, 3, 437410000, 1799, 10, 1.57, 11.1665619, 122.4001839, 377.91, 375.05, 0.02, 29.18, -0.230000, 73070
GPS, 3, 437410200, 1799, 10, 1.57, 11.1665619, 122.4001839, 378.07, 375.08, 0.05, 29.18, -0.080000, 73270
GPS, 3, 437410400, 1799, 10, 1.57, 11.1665619, 122.4001838, 378.18, 375.11, 0.03, 29.18, -0.150000, 73470
GPS, 3, 437410600, 1799, 10, 1.57, 11.1665619, 122.4001838, 378.20, 375.13, 0.00, 29.18, 0.000000, 73670
GPS, 3, 437410800, 1799, 10, 1.57, 11.1665620, 122.4001837, 378.27, 375.14, 0.06, 29.18, 0.020000, 73871
GPS, 3, 437411000, 1799, 10, 1.57, 11.1665620, 122.4001836, 378.28, 375.16, 0.06, 29.18, 0.000000, 74071
GPS, 3, 437411200, 1799, 10, 1.57, 11.1665619, 122.4001835, 378.22, 375.17, 0.08, 29.18, -0.010000, 74271
GPS, 3, 437411400, 1799, 10, 1.57, 11.1665618, 122.4001834, 378.16, 375.19, 0.04, 29.18, -0.010000, 74472
GPS, 3, 437411600, 1799, 10, 1.57, 11.1665619, 122.4001833, 378.02, 375.20, 0.04, 29.18, -0.030000, 74672
GPS, 3, 437411800, 1799, 10, 1.57, 11.1665619, 122.4001833, 377.72, 375.21, 0.02, 29.18, 0.090000, 74872
GPS, 3, 437412000, 1799, 10, 1.57, 11.1665619, 122.4001833, 377.23, 375.21, 0.02, 29.18, -0.030000, 75073
GPS, 3, 437412200, 1799, 10, 1.57, 11.1665619, 122.4001832, 376.98, 375.23, 0.05, 29.18, -0.080000, 75273
GPS, 3, 437412400, 1799, 10, 1.57, 11.1665619, 122.4001831, 376.87, 375.23, 0.03, 29.18, 0.060000, 75473
GPS, 3, 437412600, 1799, 10, 1.57, 11.1665619, 122.4001831, 376.83, 375.24, 0.07, 29.18, -0.080000, 75673
GPS, 3, 437412800, 1799, 10, 1.57, 11.1665620, 122.4001832, 376.82, 375.25, 0.03, 29.18, 0.040000, 75874
GPS, 3, 437413000, 1799, 10, 1.57, 11.1665620, 122.4001832, 376.80, 375.26, 0.04, 29.18, 0.040000, 76074
GPS, 3, 437413200, 1799, 10, 1.57, 11.1665620, 122.4001832, 376.88, 375.28, 0.04, 29.18, -0.150000, 76274
GPS, 3, 437413400, 1799, 10, 1.57, 11.1665620, 122.4001832, 376.88, 375.30, 0.01, 29.18, -0.080000, 76474
GPS, 3, 437413600, 1799, 10, 1.57, 11.1665620, 122.4001832, 376.68, 375.32, 0.03, 29.18, -0.030000, 76675
GPS, 3, 437413800, 1799, 10, 1.57, 11.1665620, 122.4001832, 376.45, 375.34, 0.08, 29.18, -0.030000, 76875
GPS, 3, 437414000, 1799, 10, 1.57, 11.1665621, 122.4001833, 376.19, 375.36, 0.02, 29.18, -0.150000, 77075
GPS, 3, 437414200, 1799, 10, 1.57, 11.1665621, 122.4001833, 375.94, 375.40, 0.08, 29.18, -0.150000, 77276
GPS, 3, 437414400, 1799, 10, 1.57, 11.1665621, 122.4001833, 375.77, 375.41, 0.07, 29.18, -0.070000, 77476
GPS, 3, 437414600, 1799, 10, 1.57, 11.1665622, 122.4001834, 375.71, 375.42, 0.03, 29.18, -0.080000, 77676
GPS, 3, 437414800, 1799, 10, 1.57, 11.1665622, 122.4001835, 375.76, 375.40, 0.04, 29.18, 0.140000, 77876
GPS, 3, 437415000, 1799, 10, 1.57, 11.1665621, 122.4001834, 375.87, 375.41, 0.13, 29.18, -0.090000, 78077
GPS, 3, 437415200, 1799, 10, 1.57, 11.1665621, 122.4001833, 375.84, 375.42, 0.07, 29.18, -0.180000, 78277
GPS, 3, 437415400, 1799, 10, 1.57, 11.1665620, 122.4001833, 375.76, 375.48, 0.12, 29.18, -0.160000, 78477
GPS, 3, 437415600, 1799, 10, 1.57, 11.1665620, 122.4001833, 375.74, 375.50, 0.08, 29.18, -0.200000, 78678
GPS, 3, 437415800, 1799, 10, 1.57, 11.1665620, 122.4001832, 375.77, 375.51, 0.05, 29.18, -0.140000, 78878
GPS, 3, 437416000, 1799, 10, 1.57, 11.1665620, 122.4001832, 375.77, 375.51, 0.06, 29.18, 0.090000, 79078
GPS, 3, 437416200, 1799, 10, 1.57, 11.1665621, 122.4001832, 375.75, 375.49, 0.06, 29.18, -0.120000, 79279
GPS, 3, 437416400, 1799, 10, 1.57, 11.1665622, 122.4001832, 375.68, 375.53, 0.05, 29.18, -0.099999, 79479
GPS, 3, 437416600, 1799, 10, 1.57, 11.1665622, 122.4001832, 375.73, 375.54, 0.13, 29.18, -0.110000, 79679
GPS, 3, 437416800, 1799, 10, 1.57, 11.1665622, 122.4001832, 375.67, 375.56, 0.02, 29.18, -0.190000, 79880
GPS, 3, 437417000, 1799, 10, 1.57, 11.1665623, 122.4001833, 375.67, 375.57, 0.04, 29.18, -0.070000, 80080
GPS, 3, 437417200, 1799, 10, 1.57, 11.1665624, 122.4001834, 375.65, 375.56, 0.04, 29.18, -0.110000, 80280
GPS, 3, 437417400, 1799, 10, 1.57, 11.1665624, 122.4001833, 375.66, 375.58, 0.08, 29.18, -0.150000, 80481
GPS, 3, 437417600, 1799, 10, 1.57, 11.1665625, 122.4001833, 375.71, 375.60, 0.04, 29.18, -0.140000, 80681
GPS, 3, 437417800, 1799, 10, 1.57, 11.1665625, 122.4001833, 375.79, 375.60, 0.09, 29.18, -0.080000, 80881
GPS, 3, 437418000, 1799, 10, 1.57, 11.1665625, 122.4001833, 376.64, 375.60, 0.04, 29.18, -0.050000, 81082
GPS, 3, 437418200, 1799, 10, 1.57, 11.1665626, 122.4001833, 377.79, 375.60, 0.08, 29.18, -0.050000, 81282
GPS, 3, 437418400, 1799, 10, 1.57, 11.1665626, 122.4001832, 378.55, 375.60, 0.06, 29.18, -0.070000, 81482
GPS, 3, 437418600, 1799, 10, 1.57, 11.1665626, 122.4001832, 379.10, 375.61, 0.02, 29.18, -0.150000, 81682
GPS, 3, 437418800, 1799, 10, 1.57, 11.1665627, 122.4001831, 379.38, 375.62, 0.10, 29.18, -0.080000, 81882
GPS, 3, 437419000, 1799, 10, 1.57, 11.1665627, 122.4001830, 379.59, 375.63, 0.04, 29.18, -0.060000, 82083
GPS, 3, 437419200, 1799, 10, 1.57, 11.1665627, 122.4001829, 379.77, 375.64, 0.06, 29.18, -0.099999, 82283
GPS, 3, 437419400, 1799, 10, 1.57, 11.1665627, 122.4001829, 379.90, 375.64, 0.05, 29.18, -0.040000, 82483
GPS, 3, 437419600, 1799, 10, 1.57, 11.1665628, 122.4001829, 379.97, 375.64, 0.08, 29.18, -0.040000, 82684
GPS, 3, 437419800, 1799, 10, 1.57, 11.1665628, 122.4001829, 380.04, 375.65, 0.08, 29.18, 0.030000, 82884
GPS, 3, 437420000, 1799, 10, 1.57, 11.1665628, 122.4001829, 379.99, 375.65, 0.02, 29.18, 0.000000, 83084
GPS, 3, 437420200, 1799, 10, 1.57, 11.1665628, 122.4001829, 379.96, 375.64, 0.06, 29.18, -0.040000, 83285
GPS, 3, 437420400, 1799, 10, 1.57, 11.1665628, 122.4001829, 379.99, 375.63, 0.07, 29.18, 0.050000, 83485
GPS, 3, 437420600, 1799, 10, 1.57, 11.1665628, 122.4001828, 379.93, 375.64, 0.05, 29.18, -0.070000, 83685
GPS, 3, 437420800, 1799, 10, 1.57, 11.1665629, 122.4001828, 379.91, 375.63, 0.05, 29.18, -0.020000, 83886
GPS, 3, 437421000, 1799, 10, 1.57, 11.1665630, 122.4001828, 379.93, 375.62, 0.03, 29.18, 0.080000, 84086
GPS, 3, 437421200, 1799, 10, 1.57, 11.1665630, 122.4001828, 379.92, 375.63, 0.07, 29.18, -0.080000, 84286
GPS, 3, 437421400, 1799, 10, 1.57, 11.1665629, 122.4001826, 379.92, 375.65, 0.15, 29.18, -0.150000, 84486
GPS, 3, 437421600, 1799, 10, 1.57, 11.1665628, 122.4001825, 379.90, 375.69, 0.13, 29.18, -0.200000, 84686
GPS, 3, 437421800, 1799, 10, 1.57, 11.1665627, 122.4001825, 379.92, 375.71, 0.10, 29.18, -0.160000, 84887
GPS, 3, 437422000, 1799, 10, 1.57, 11.1665626, 122.4001824, 379.91, 375.73, 0.04, 29.18, -0.060000, 85087
GPS, 3, 437422200, 1799, 10, 1.57, 11.1665626, 122.4001824, 379.86, 375.75, 0.03, 29.18, -0.220000, 85287
GPS, 3, 437422400, 1799, 10, 1.57, 11.1665627, 122.4001823, 379.89, 375.76, 0.01, 29.18, -0.110000, 85488
GPS, 3, 437422600, 1799, 10, 1.57, 11.1665627, 122.4001823, 379.87, 375.76, 0.03, 29.18, 0.000000, 85688
GPS, 3, 437422800, 1799, 10, 1.57, 11.1665627, 122.4001824, 379.86, 375.76, 0.05, 29.18, -0.070000, 85888
GPS, 3, 437423000, 1799, 10, 1.57, 11.1665628, 122.4001823, 379.91, 375.78, 0.14, 29.18, -0.060000, 86089
GPS, 3, 437423200, 1799, 10, 1.57, 11.1665627, 122.4001822, 379.90, 375.77, 0.07, 29.18, 0.030000, 86289
GPS, 3, 437423400, 1799, 10, 1.57, 11.1665627, 122.4001822, 379.90, 375.78, 0.01, 29.18, -0.010000, 86489
GPS, 3, 437423600, 1799, 10, 1.57, 11.1665628, 122.4001822, 379.91, 375.76, 0.07, 29.18, 0.070000, 86689
GPS, 3, 437423800, 1799, 10, 1.57, 11.1665628, 122.4001822, 379.87, 375.75, 0.03, 29.18, 0.040000, 86890
GPS, 3, 437424000, 1799, 10, 1.57, 11.1665629, 122.4001822, 379.90, 375.74, 0.05, 29.18, 0.020000, 87090
GPS, 3, 437424200, 1799, 10, 1.57, 11.1665629, 122.4001822, 379.92, 375.74, 0.02, 29.18, -0.020000, 87290
GPS, 3, 437424400, 1799, 10, 1.57, 11.1665628, 122.4001822, 379.90, 375.75, 0.10, 29.18, -0.080000, 87491
GPS, 3, 437424600, 1799, 10, 1.57, 11.1665628, 122.4001821, 379.88, 375.76, 0.04, 29.18, 0.000000, 87691
GPS, 3, 437424800, 1799, 10, 1.57, 11.1665628, 122.4001821, 379.89, 375.75, 0.03, 29.18, 0.050000, 87891
GPS, 3, 437425000, 1799, 10, 1.57, 11.1665628, 122.4001820, 379.86, 375.74, 0.04, 29.18, 0.030000, 88091
GPS, 3, 437425200, 1799, 10, 1.57, 11.1665627, 122.4001820, 379.93, 375.76, 0.01, 29.18, -0.110000, 88292
GPS, 3, 437425400, 1799, 10, 1.57, 11.1665628, 122.4001820, 379.91, 375.77, 0.01, 29.18, -0.080000, 88492
GPS, 3, 437425600, 1799, 10, 1.57, 11.1665628, 122.4001820, 379.91, 375.75, 0.02, 29.18, 0.130000, 88692
GPS, 3, 437425800, 1799, 10, 1.57, 11.1665627, 122.4001820, 379.91, 375.75, 0.08, 29.18, -0.020000, 88892
GPS, 3, 437426000, 1799, 10, 1.57, 11.1665627, 122.4001819, 379.88, 375.75, 0.05, 29.18, 0.030000, 89093
GPS, 3, 437426200, 1799, 10, 1.57, 11.1665627, 122.4001819, 379.92, 375.75, 0.02, 29.18, -0.070000, 89293
GPS, 3, 437426400, 1799, 10, 1.57, 11.1665627, 122.4001818, 379.93, 375.77, 0.10, 29.18, -0.099999, 89493
GPS, 3, 437426600, 1799, 10, 1.57, 11.1665626, 122.4001817, 379.83, 375.78, 0.08, 29.18, -0.030000, 89694
GPS, 3, 437426800, 1799, 10, 1.57, 11.1665626, 122.4001816, 379.90, 375.78, 0.09, 29.18, -0.040000, 89894
GPS, 3, 437427000, 1799, 10, 1.57, 11.1665627, 122.4001816, 379.94, 375.79, 0.07, 29.18, -0.060000, 90094
GPS, 3, 437427200, 1799, 10, 1.57, 11.1665627, 122.4001816, 379.92, 375.82, 0.07, 29.18, -0.120000, 90295
GPS, 3, 437427400, 1799, 10, 1.57, 11.1665626, 122.4001814, 379.95, 375.84, 0.12, 29.18, -0.099999, 90495
GPS, 3, 437427600, 1799, 10, 1.57, 11.1665626, 122.4001814, 379.95, 375.84, 0.03, 29.18, 0.040000, 90695
GPS, 3, 437427800, 1799, 10, 1.57, 11.1665625, 122.4001814, 379.93, 375.84, 0.04, 29.18, -0.050000, 90895
GPS, 3, 437428000, 1799, 10, 1.57, 11.1665625, 122.4001814, 379.93, 375.84, 0.02, 29.18, 0.030000, 91095
GPS, 3, 437428200, 1799, 10, 1.57, 11.1665626, 122.4001814, 379.94, 375.84, 0.02, 29.18, -0.060000, 91296
GPS, 3, 437428400, 1799, 10, 1.57, 11.1665625, 122.4001813, 379.90, 375.86, 0.12, 29.18, -0.010000, 91496
GPS, 3, 437428600, 1799, 10, 1.57, 11.1665624, 122.4001812, 379.88, 375.85, 0.03, 29.18, -0.030000, 91696
GPS, 3, 437428800, 1799, 10, 1.57, 11.1665625, 122.4001812, 379.90, 375.86, 0.03, 29.18, -0.120000, 91897
GPS, 3, 437429000, 1799, 10, 1.57, 11.1665625, 122.4001812, 379.91, 375.87, 0.05, 29.18, -0.040000, 92097
GPS, 3, 437429200, 1799, 10, 1.57, 11.1665625, 122.4001812, 379.88, 375.87, 0.05, 29.18, -0.010000, 92297
GPS, 3, 437429400, 1799, 10, 1.57, 11.1665626, 122.4001812, 379.92, 375.86, 0.03, 29.18, 0.030000, 92497
GPS, 3, 437429600, 1799, 10, 1.57, 11.1665627, 122.4001813, 379.89, 375.87, 0.11, 29.18, -0.040000, 92698
GPS, 3, 437429800, 1799, 10, 1.57, 11.1665629, 122.4001814, 379.95, 375.88, 0.01, 29.18, -0.170000, 92898
GPS, 3, 437430000, 1799, 10, 1.57, 11.1665629, 122.4001814, 379.95, 375.90, 0.06, 29.18, -0.070000, 93098
GPS, 3, 437430200, 1799, 10, 1.57, 11.1665629, 122.4001814, 379.95, 375.92, 0.07, 29.18, -0.110000, 93299
GPS, 3, 437430400, 1799, 10, 1.57, 11.1665628, 122.4001813, 379.99, 375.94, 0.06, 29.18, -0.099999, 93499
GPS, 3, 437430600, 1799, 10, 1.57, 11.1665628, 122.4001813, 379.98, 375.97, 0.05, 29.18, -0.140000, 93700
GPS, 3, 437430800, 1799, 10, 1.57, 11.1665629, 122.4001813, 380.05, 375.97, 0.06, 29.18, 0.040000, 93900
GPS, 3, 437431000, 1799, 10, 1.57, 11.1665629, 122.4001812, 380.07, 375.98, 0.05, 29.18, -0.120000, 94100
GPS, 3, 437431200, 1799, 10, 1.57, 11.1665630, 122.4001812, 380.08, 376.00, 0.02, 29.18, 0.020000, 94301
GPS, 3, 437431400, 1799, 10, 1.57, 11.1665630, 122.4001812, 380.04, 376.01, 0.07, 29.18, -0.050000, 94501
GPS, 3, 437431600, 1799, 10, 1.57, 11.1665630, 122.4001812, 380.05, 376.04, 0.04, 29.18, -0.110000, 94701
GPS, 3, 437431800, 1799, 10, 1.57, 11.1665631, 122.4001811, 380.02, 376.05, 0.04, 29.18, 0.030000, 94901
GPS, 3, 437432000, 1799, 10, 1.57, 11.1665631, 122.4001811, 380.00, 376.06, 0.08, 29.18, -0.070000, 95101
GPS, 3, 437432200, 1799, 10, 1.57, 11.1665631, 122.4001811, 380.04, 376.08, 0.07, 29.18, -0.080000, 95302
GPS, 3, 437432400, 1799, 10, 1.57, 11.1665631, 122.4001811, 380.01, 376.09, 0.01, 29.18, -0.020000, 95502
GPS, 3, 437432600, 1799, 10, 1.57, 11.1665631, 122.4001811, 380.05, 376.12, 0.08, 29.18, -0.099999, 95703
GPS, 3, 437432800, 1799, 10, 1.57, 11.1665630, 122.4001810, 380.05, 376.16, 0.03, 29.18, -0.200000, 95903
GPS, 3, 437433000, 1799, 10, 1.57, 11.1665630, 122.4001810, 380.01, 376.17, 0.05, 29.18, -0.030000, 96103
GPS, 3, 437433200, 1799, 10, 1.57, 11.1665631, 122.4001810, 380.04, 376.18, 0.02, 29.18, -0.010000, 96303
GPS, 3, 437433400, 1799, 10, 1.57, 11.1665631, 122.4001810, 380.00, 376.17, 0.04, 29.18, 0.050000, 96504
GPS, 3, 437433600, 1799, 10, 1.57, 11.1665632, 122.4001810, 379.97, 376.18, 0.03, 29.18, -0.030000, 96704
GPS, 3, 437433800, 1799, 10, 1.57, 11.1665632, 122.4001809, 379.88, 376.20, 0.03, 29.18, -0.170000, 96904
GPS, 3, 437434000, 1799, 10, 1.57, 11.1665633, 122.4001809, 379.51, 376.22, 0.10, 29.18, -0.040000, 97104
GPS, 3, 437434200, 1799, 10, 1.57, 11.1665634, 122.4001809, 379.24, 376.23, 0.02, 29.18, -0.090000, 97305
GPS, 3, 437434400, 1799, 10, 1.57, 11.1665634, 122.4001808, 379.20, 376.25, 0.08, 29.18, -0.090000, 97505
GPS, 3, 437434600, 1799, 10, 1.57, 11.1665634, 122.4001807, 379.20, 376.26, 0.05, 29.18, -0.080000, 97705
GPS, 3, 437434800, 1799, 10, 1.57, 11.1665635, 122.4001807, 379.20, 376.28, 0.05, 29.18, -0.080000, 97906
GPS, 3, 437435000, 1799, 10, 1.57, 11.1665635, 122.4001806, 379.24, 376.30, 0.07, 29.18, -0.060000, 98106
GPS, 3, 437435200, 1799, 10, 1.57, 11.1665635, 122.4001808, 379.17, 376.30, 0.13, 29.18, 0.040000, 98306
GPS, 3, 437435400, 1799, 10, 1.57, 11.1665637, 122.4001810, 378.89, 376.28, 0.09, 29.18, 0.130000, 98507
GPS, 3, 437435600, 1799, 10, 1.57, 11.1665638, 122.4001810, 378.16, 376.27, 0.06, 29.18, 0.070000, 98707
GPS, 3, 437435800, 1799, 10, 1.57, 11.1665638, 122.4001810, 377.49, 376.27, 0.06, 29.18, 0.010000, 98907
GPS, 3, 437436000, 1799, 10, 1.57, 11.1665639, 122.4001811, 377.17, 376.27, 0.02, 29.18, -0.020000, 99107
GPS, 3, 437436200, 1799, 10, 1.57, 11.1665639, 122.4001811, 376.99, 376.27, 0.02, 29.18, 0.080000, 99308
GPS, 3, 437436400, 1799, 10, 1.57, 11.1665640, 122.4001812, 376.97, 376.26, 0.04, 29.18, -0.020000, 99508
GPS, 3, 437436600, 1799, 10, 1.57, 11.1665639, 122.4001812, 376.90, 376.28, 0.07, 29.18, -0.130000, 99708
GPS, 3, 437436800, 1799, 10, 1.57, 11.1665639, 122.4001812, 376.88, 376.29, 0.04, 29.18, 0.099999, 99908
GPS, 3, 437437000, 1799, 10, 1.57, 11.1665640, 122.4001812, 376.89, 376.28, 0.07, 29.18, 0.000000, 100109
GPS, 3, 437437200, 1799, 10, 1.57, 11.1665640, 122.4001813, 376.89, 376.29, 0.07, 29.18, 0.000000, 100309
GPS, 3, 437437400, 1799, 10, 1.57, 11.1665639, 122.4001813, 376.92, 376.31, 0.06, 29.18, -0.050000, 100509
GPS, 3, 437437600, 1799, 10, 1.57, 11.1665638, 122.4001814, 376.91, 376.32, 0.09, 29.18, -0.080000, 100710
GPS, 3, 437437800, 1799, 10, 1.57, 11.1665638, 122.4001814, 376.98, 376.34, 0.02, 29.18, -0.050000, 100910
GPS, 3, 437438000, 1799, 10, 1.57, 11.1665638, 122.4001814, 377.32, 376.34, 0.08, 29.18, 0.080000, 101110
GPS, 3, 437438200, 1799, 10, 1.57, 11.1665638, 122.4001814, 377.86, 376.33, 0.04, 29.18, -0.010000, 101310
GPS, 3, 437438400, 1799, 10, 1.57, 11.1665637, 122.4001813, 378.67, 376.34, 0.11, 29.18, -0.080000, 101511
GPS, 3, 437438600, 1799, 10, 1.57, 11.1665636, 122.4001813, 379.02, 376.35, 0.04, 29.18, -0.050000, 101711
GPS, 3, 437438800, 1799, 10, 1.57, 11.1665636, 122.4001813, 379.22, 376.37, 0.03, 29.18, -0.040000, 101911
GPS, 3, 437439000, 1799, 10, 1.57, 11.1665636, 122.4001813, 379.33, 376.39, 0.04, 29.18, -0.110000, 102112
GPS, 3, 437439200, 1799, 10, 1.57, 11.1665636, 122.4001813, 379.39, 376.41, 0.08, 29.18, -0.110000, 102312
GPS, 3, 437439400, 1799, 10, 1.57, 11.1665636, 122.4001813, 379.43, 376.43, 0.03, 29.18, -0.060000, 102512
GPS, 3, 437439600, 1799, 10, 1.57, 11.1665636, 122.4001813, 379.42, 376.45, 0.04, 29.18, -0.050000, 102712
GPS, 3, 437439800, 1799, 10, 1.57, 11.1665636, 122.4001812, 379.31, 376.48, 0.07, 29.18, -0.110000, 102913
GPS, 3, 437440000, 1799, 10, 1.57, 11.1665636, 122.4001813, 379.33, 376.49, 0.04, 29.18, -0.040000, 103113
GPS, 3, 437440200, 1799, 10, 1.57, 11.1665636, 122.4001812, 379.26, 376.50, 0.08, 29.18, -0.040000, 103313
GPS, 3, 437440400, 1799, 10, 1.57, 11.1665637, 122.4001811, 379.24, 376.52, 0.04, 29.18, -0.130000, 103514
GPS, 3, 437440600, 1799, 10, 1.57, 11.1665636, 122.4001811, 379.16, 376.54, 0.06, 29.18, -0.080000, 103714
GPS, 3, 437440800, 1799, 10, 1.57, 11.1665636, 122.4001811, 379.09, 376.54, 0.01, 29.18, 0.020000, 103914
GPS, 3, 437441000, 1799, 10, 1.57, 11.1665636, 122.4001811, 379.06, 376.55, 0.04, 29.18, 0.030000, 104114
GPS, 3, 437441200, 1799, 10, 1.57, 11.1665637, 122.4001811, 379.02, 376.56, 0.06, 29.18, -0.110000, 104315
GPS, 3, 437441400, 1799, 10, 1.57, 11.1665636, 122.4001810, 378.97, 376.59, 0.06, 29.18, -0.070000, 104515
GPS, 3, 437441600, 1799, 10, 1.57, 11.1665636, 122.4001810, 379.05, 376.58, 0.07, 29.18, 0.060000, 104715
GPS, 3, 437441800, 1799, 10, 1.57, 11.1665637, 122.4001811, 379.07, 376.58, 0.04, 29.18, 0.010000, 104915
GPS, 3, 437442000, 1799, 10, 1.57, 11.1665637, 122.4001811, 379.09, 376.58, 0.03, 29.18, 0.030000, 105116
GPS, 3, 437442200, 1799, 10, 1.57, 11.1665638, 122.4001812, 379.11, 376.58, 0.04, 29.18, 0.000000, 105316
GPS, 3, 437442400, 1799, 10, 1.57, 11.1665638, 122.4001812, 379.14, 376.57, 0.03, 29.18, 0.050000, 105516
GPS, 3, 437442600, 1799, 10, 1.57, 11.1665638, 122.4001813, 379.17, 376.56, 0.05, 29.18, 0.010000, 105717
GPS, 3, 437442800, 1799, 10, 1.57, 11.1665638, 122.4001814, 379.22, 376.56, 0.05, 29.18, -0.060000, 105917
GPS, 3, 437443000, 1799, 10, 1.57, 11.1665638, 122.4001814, 379.20, 376.57, 0.03, 29.18, -0.120000, 106117
GPS, 3, 437443200, 1799, 10, 1.57, 11.1665639, 122.4001813, 379.17, 376.58, 0.03, 29.18, 0.050000, 106317
GPS, 3, 437443400, 1799, 10, 1.57, 11.1665639, 122.4001813, 379.18, 376.56, 0.04, 29.18, 0.030000, 106518
GPS, 3, 437443600, 1799, 10, 1.57, 11.1665639, 122.4001813, 379.25, 376.55, 0.06, 29.18, 0.060000, 106718
GPS, 3, 437443800, 1799, 10, 1.57, 11.1665640, 122.4001814, 379.23, 376.55, 0.04, 29.18, -0.060000, 106918
GPS, 3, 437444000, 1799, 10, 1.57, 11.1665641, 122.4001815, 379.34, 376.57, 0.05, 29.18, -0.110000, 107119
GPS, 3, 437444200, 1799, 10, 1.57, 11.1665641, 122.4001815, 379.36, 376.58, 0.00, 29.18, -0.030000, 107319
GPS, 3, 437444400, 1799, 10, 1.57, 11.1665641, 122.4001815, 379.42, 376.60, 0.09, 29.18, -0.110000, 107520
GPS, 3, 437444600, 1799, 10, 1.57, 11.1665641, 122.4001814, 379.44, 376.62, 0.06, 29.18, -0.099999, 107720
GPS, 3, 437444800, 1799, 10, 1.57, 11.1665641, 122.4001814, 379.49, 376.63, 0.04, 29.18, -0.020000, 107920
GPS, 3, 437445000, 1799, 10, 1.57, 11.1665642, 122.4001815, 379.53, 376.64, 0.06, 29.18, -0.010000, 108121
GPS, 3, 437445200, 1799, 10, 1.57, 11.1665643, 122.4001815, 379.55, 376.65, 0.05, 29.18, -0.010000, 108321
GPS, 3, 437445400, 1799, 10, 1.57, 11.1665643, 122.4001815, 379.56, 376.65, 0.09, 29.18, -0.040000, 108521
GPS, 3, 437445600, 1799, 10, 1.57, 11.1665644, 122.4001815, 379.49, 376.66, 0.07, 29.18, -0.050000, 108707
GPS, 3, 437445800, 1799, 10, 1.57, 11.1665643, 122.4001815, 379.42, 376.67, 0.06, 29.18, 0.000000, 108907
GPS, 3, 437446000, 1799, 10, 1.57, 11.1665644, 122.4001816, 379.41, 376.66, 0.02, 29.18, 0.010000, 109108
GPS, 3, 437446200, 1799, 10, 1.57, 11.1665644, 122.4001817, 379.38, 376.66, 0.02, 29.18, -0.020000, 109308
GPS, 3, 437446400, 1799, 10, 1.57, 11.1665644, 122.4001816, 379.42, 376.66, 0.09, 29.18, -0.070000, 109508
GPS, 3, 437446600, 1799, 10, 1.57, 11.1665644, 122.4001816, 379.43, 376.65, 0.03, 29.18, 0.070000, 109708
GPS, 3, 437446800, 1799, 10, 1.57, 11.1665644, 122.4001816, 379.46, 376.64, 0.02, 29.18, -0.070000, 109909
GPS, 3, 437447000, 1799, 10, 1.57, 11.1665644, 122.4001816, 379.44, 376.65, 0.05, 29.18, 0.030000, 110109
GPS, 3, 437447200, 1799, 10, 1.57, 11.1665644, 122.4001816, 379.41, 376.67, 0.05, 29.18, -0.240000, 110309
GPS, 3, 437447400, 1799, 10, 1.57, 11.1665644, 122.4001817, 379.47, 376.68, 0.05, 29.18, 0.040000, 110509
GPS, 3, 437447600, 1799, 10, 1.57, 11.1665645, 122.4001816, 379.47, 376.67, 0.06, 29.18, -0.120000, 110710
GPS, 3, 437447800, 1799, 10, 1.57, 11.1665645, 122.4001817, 379.48, 376.66, 0.05, 29.18, 0.130000, 110915
GPS, 3, 437448000, 1799, 10, 1.57, 11.1665645, 122.4001817, 379.45, 376.66, 0.05, 29.18, -0.040000, 111120
GPS, 3, 437448200, 1799, 10, 1.57, 11.1665645, 122.4001817, 379.46, 376.66, 0.02, 29.18, 0.030000, 111320
GPS, 3, 437448400, 1799, 10, 1.57, 11.1665645, 122.4001816, 379.46, 376.66, 0.02, 29.18, -0.060000, 111521
GPS, 3, 437448600, 1799, 10, 1.57, 11.1665646, 122.4001817, 379.44, 376.67, 0.02, 29.18, -0.120000, 111721
GPS, 3, 437448800, 1799, 10, 1.57, 11.1665646, 122.4001816, 379.50, 376.70, 0.05, 29.18, -0.150000, 111921
GPS, 3, 437449000, 1799, 10, 1.57, 11.1665646, 122.4001816, 379.51, 376.73, 0.04, 29.18, -0.080000, 112122
GPS, 3, 437449200, 1799, 10, 1.57, 11.1665646, 122.4001816, 379.58, 376.74, 0.03, 29.18, -0.080000, 112322
GPS, 3, 437449400, 1799, 10, 1.57, 11.1665646, 122.4001815, 379.57, 376.77, 0.03, 29.18, -0.120000, 112522
GPS, 3, 437449600, 1799, 10, 1.57, 11.1665647, 122.4001815, 379.63, 376.78, 0.07, 29.18, -0.050000, 112709
GPS, 3, 437449800, 1799, 10, 1.57, 11.1665647, 122.4001814, 379.64, 376.78, 0.02, 29.18, -0.010000, 112927
GPS, 3, 437450000, 1799, 10, 1.57, 11.1665647, 122.4001814, 379.63, 376.78, 0.04, 29.18, -0.040000, 113128
GPS, 3, 437450200, 1799, 10, 1.57, 11.1665647, 122.4001815, 379.65, 376.79, 0.02, 29.18, -0.070000, 113328
GPS, 3, 437450400, 1799, 10, 1.57, 11.1665648, 122.4001815, 379.69, 376.80, 0.02, 29.18, -0.070000, 113528
GPS, 3, 437450600, 1799, 10, 1.57, 11.1665648, 122.4001816, 379.75, 376.80, 0.08, 29.18, -0.040000, 113729
GPS, 3, 437450800, 1799, 10, 1.57, 11.1665648, 122.4001817, 379.84, 376.80, 0.02, 29.18, -0.090000, 113910
GPS, 3, 437451000, 1799, 10, 1.57, 11.1665648, 122.4001817, 379.86, 376.81, 0.05, 29.18, -0.030000, 114129
GPS, 3, 437451200, 1799, 10, 1.57, 11.1665648, 122.4001817, 379.89, 376.83, 0.04, 29.18, -0.150000, 114315
GPS, 3, 437451400, 1799, 10, 1.57, 11.1665649, 122.4001818, 379.87, 376.85, 0.07, 29.18, -0.070000, 114516
GPS, 3, 437451600, 1799, 10, 1.57, 11.1665650, 122.4001819, 379.87, 376.84, 0.07, 29.18, 0.040000, 114716
GPS, 3, 437451800, 1799, 10, 1.57, 11.1665650, 122.4001820, 379.89, 376.84, 0.04, 29.18, -0.099999, 114921
GPS, 3, 437452000, 1799, 10, 1.57, 11.1665652, 122.4001820, 379.96, 376.84, 0.10, 29.18, -0.110000, 115126
GPS, 3, 437452200, 1799, 10, 1.57, 11.1665654, 122.4001821, 380.05, 376.83, 0.03, 29.18, 0.090000, 115332
GPS, 3, 437452400, 1799, 10, 1.57, 11.1665654, 122.4001822, 380.05, 376.84, 0.02, 29.18, -0.090000, 115532
GPS, 3, 437452600, 1799, 10, 1.57, 11.1665655, 122.4001823, 380.09, 376.86, 0.08, 29.18, -0.140000, 115732
GPS, 3, 437452800, 1799, 10, 1.57, 11.1665655, 122.4001823, 380.08, 376.91, 0.13, 29.18, -0.360000, 115917
GPS, 3, 437453000, 1799, 10, 1.57, 11.1665656, 122.4001822, 380.06, 376.94, 0.03, 29.18, -0.040000, 116117
GPS, 3, 437453200, 1799, 10, 1.57, 11.1665657, 122.4001822, 380.05, 376.95, 0.06, 29.18, -0.050000, 116318
GPS, 3, 437453400, 1799, 10, 1.57, 11.1665657, 122.4001822, 379.98, 376.95, 0.08, 29.18, 0.010000, 116518
GPS, 3, 437453600, 1799, 10, 1.57, 11.1665658, 122.4001822, 379.99, 376.95, 0.04, 29.18, -0.030000, 116728
GPS, 3, 437453800, 1799, 10, 1.57, 11.1665659, 122.4001823, 379.99, 376.97, 0.07, 29.18, -0.090000, 116928
GPS, 3, 437454000, 1799, 10, 1.57, 11.1665660, 122.4001824, 379.98, 376.99, 0.02, 29.18, -0.080000, 117129
GPS, 3, 437454200, 1799, 10, 1.57, 11.1665660, 122.4001825, 380.02, 376.99, 0.07, 29.18, 0.070000, 117329
GPS, 3, 437454400, 1799, 10, 1.57, 11.1665661, 122.4001826, 380.06, 376.99, 0.06, 29.18, -0.060000, 117529
GPS, 3, 437454600, 1799, 10, 1.57, 11.1665661, 122.4001826, 380.01, 376.99, 0.05, 29.18, -0.010000, 117729
GPS, 3, 437454800, 1799, 10, 1.57, 11.1665662, 122.4001827, 380.08, 376.98, 0.02, 29.18, -0.050000, 117930
GPS, 3, 437455000, 1799, 10, 1.58, 11.1665663, 122.4001828, 380.06, 377.00, 0.02, 29.18, -0.070000, 118130
GPS, 3, 437455200, 1799, 10, 1.58, 11.1665663, 122.4001828, 380.05, 377.01, 0.04, 29.18, -0.030000, 118330
GPS, 3, 437455400, 1799, 10, 1.58, 11.1665663, 122.4001828, 380.11, 377.00, 0.09, 29.18, 0.070000, 118531
GPS, 3, 437455600, 1799, 10, 1.58, 11.1665663, 122.4001829, 380.12, 377.00, 0.01, 29.18, -0.040000, 118731
GPS, 3, 437455800, 1799, 10, 1.58, 11.1665664, 122.4001829, 380.19, 377.00, 0.02, 29.18, -0.020000, 118931
GPS, 3, 437456000, 1799, 10, 1.58, 11.1665665, 122.4001829, 380.18, 377.02, 0.02, 29.18, -0.090000, 119131
GPS, 3, 437456200, 1799, 10, 1.58, 11.1665665, 122.4001829, 380.17, 377.01, 0.05, 29.18, 0.010000, 119352
GPS, 3, 437456400, 1799, 10, 1.58, 11.1665665, 122.4001829, 380.11, 377.01, 0.04, 29.18, 0.050000, 119532
GPS, 3, 437456600, 1799, 10, 1.58, 11.1665666, 122.4001829, 380.12, 377.01, 0.08, 29.18, -0.050000, 119732
GPS, 3, 437456800, 1799, 10, 1.58, 11.1665667, 122.4001829, 380.07, 377.03, 0.01, 29.18, -0.140000, 119932
GPS, 3, 437457000, 1799, 10, 1.58, 11.1665667, 122.4001829, 380.11, 377.05, 0.03, 29.18, -0.150000, 120133
GPS, 3, 437457200, 1799, 10, 1.58, 11.1665668, 122.4001829, 380.08, 377.07, 0.03, 29.18, 0.010000, 120333
GPS, 3, 437457400, 1799, 10, 1.58, 11.1665668, 122.4001829, 380.06, 377.07, 0.08, 29.18, -0.099999, 120533
GPS, 3, 437457600, 1799, 10, 1.58, 11.1665668, 122.4001829, 380.07, 377.07, 0.02, 29.18, 0.099999, 120734
GPS, 3, 437457800, 1799, 10, 1.58, 11.1665669, 122.4001829, 380.07, 377.07, 0.03, 29.18, -0.070000, 120934
GPS, 3, 437458000, 1799, 10, 1.58, 11.1665671, 122.4001829, 380.08, 377.08, 0.06, 29.18, -0.070000, 121134
GPS, 3, 437458200, 1799, 10, 1.58, 11.1665671, 122.4001829, 380.08, 377.09, 0.06, 29.18, -0.020000, 121334
GPS, 3, 437458400, 1799, 9, 1.66, 11.1665671, 122.4001829, 380.01, 377.11, 0.06, 29.18, -0.099999, 121515
GPS, 3, 437458600, 1799, 10, 1.58, 11.1665672, 122.4001830, 380.01, 377.10, 0.06, 29.18, 0.060000, 121735
GPS, 3, 437458800, 1799, 10, 1.58, 11.1665673, 122.4001830, 379.99, 377.09, 0.01, 29.18, 0.140000, 121935
GPS, 3, 437459000, 1799, 10, 1.58, 11.1665673, 122.4001831, 379.95, 377.07, 0.06, 29.18, -0.090000, 122136
GPS, 3, 437459200, 1799, 10, 1.58, 11.1665673, 122.4001832, 380.00, 377.09, 0.05, 29.18, -0.210000, 122336
GPS, 3, 437459401, 1799, 10, 1.58, 11.1665674, 122.4001832, 379.98, 377.10, 0.05, 29.18, -0.050000, 122536
GPS, 3, 437459600, 1799, 10, 1.58, 11.1665675, 122.4001832, 379.94, 377.09, 0.04, 29.18, 0.099999, 122718
GPS, 3, 437459800, 1799, 10, 1.58, 11.1665675, 122.4001832, 379.94, 377.08, 0.04, 29.18, 0.099999, 122918
GPS, 3, 437460000, 1799, 10, 1.58, 11.1665675, 122.4001831, 379.93, 377.07, 0.10, 29.18, 0.060000, 123118
GPS, 3, 437460200, 1799, 10, 1.58, 11.1665675, 122.4001831, 379.88, 377.07, 0.05, 29.18, -0.090000, 123318
GPS, 3, 437460400, 1799, 10, 1.58, 11.1665675, 122.4001831, 379.94, 377.07, 0.01, 29.18, 0.070000, 123519
GPS, 3, 437460600, 1799, 10, 1.58, 11.1665676, 122.4001831, 379.89, 377.08, 0.03, 29.18, -0.020000, 123719
GPS, 3, 437460800, 1799, 10, 1.58, 11.1665677, 122.4001831, 379.89, 377.10, 0.02, 29.18, -0.120000, 123919
GPS, 3, 437461000, 1799, 10, 1.58, 11.1665677, 122.4001831, 379.91, 377.11, 0.03, 29.18, 0.020000, 124120
GPS, 3, 437461200, 1799, 10, 1.58, 11.1665678, 122.4001831, 379.89, 377.10, 0.04, 29.18, 0.020000, 124320
GPS, 3, 437461400, 1799, 10, 1.58, 11.1665678, 122.4001831, 379.93, 377.11, 0.04, 29.18, 0.000000, 124521
GPS, 3, 437461600, 1799, 10, 1.58, 11.1665679, 122.4001831, 379.89, 377.13, 0.06, 29.18, -0.020000, 124721
GPS, 3, 437461800, 1799, 10, 1.58, 11.1665679, 122.4001831, 379.84, 377.15, 0.02, 29.18, -0.070000, 124921
GPS, 3, 437462000, 1799, 10, 1.58, 11.1665680, 122.4001831, 379.82, 377.18, 0.08, 29.18, 0.000000, 125121
GPS, 3, 437462200, 1799, 10, 1.58, 11.1665681, 122.4001832, 379.83, 377.17, 0.07, 29.18, -0.010000, 125322
GPS, 3, 437462400, 1799, 10, 1.58, 11.1665682, 122.4001832, 379.82, 377.17, 0.04, 29.18, 0.130000, 125522
